time: 
0.00: $GPRMC,131348.00,A,3039.08336,N,
0.03: 07650.83500,E,2.458,7.40,200325,
0.06: ,,A*61$GPVTG,7.40,T,,M,2.458,N
0.09: ,4.552,K,A*33$GPGGA,131348.00,
0.12: 3039.08336,N,07650.83500,E,1,05,
0.15: 2.03,331.4,M,-37.2,M,,*77$GPGS
0.18: A,A,3,29,15,18,23,05,,,,,,,,4.96
0.21: ,2.03,4.52*09$GPGSV,4,1,13,05,
0.24: 
0.27: 3PGSV,4,1,13,05,33,040,09,10,08,
0.3: 238,23,13,37,071,,15,62,124,34*7
0.33: 7$GPGSV,4,2,13,16,06,316,,18,4
0.36: 6,322,26,20,03,056,,23,45,255,22
0.39: *74$GPGSV,4,3,13,24,02,149,,25
0.42: ,12,201,22,26,12,291,11,29,81,17
0.45: 0,39*70$GPGSV,4,4,13,40,52,204
0.48: ,32*4F$GPGLL,3039.07959,N,0765
0.51: 
0.54: 
0.57: 
0.6: 
0.63: 
0.66: 
0.69: 
0.72: 
0.75: 
0.78: 0.83371,E,131406.00,A,A*69$GPR
0.81: MC,131407.00,A,3039.07975,N,0765
0.84: 
0.87: 
0.9: 0.83378,E,0.920,,200325,,,A*7B
0.93: $GPVTG,,T,,M,0.920,N,1.704,K,A*2
0.96: A$GPGGA,131407.00,3039.07975,N
0.99: ,07650.83378,E,1,05,2.15,331.4,M
1.02: ,-37.2,M,,*77$GPGSA,A,3,29,15,
1.05: 18,23,25,,,,,,,,3.51,2.15,2.78*0
1.08: E$GPGSV,4,1,13,05,33,040,09,10
1.11: ,08,238,23,13,37,071,,15,62,124,
1.14: 34*77$GPGSV,4,2,13,16,06,316,,
1.17: 18,46,322,26,20,03,056,,23,45,25
1.2: 5,21*77$GPGSV,4,3,13,24,02,149
1.23: ,,25,12,201,22,26,12,291,10,29,8
1.26: 1,170,39*71$GPGSV,4,4,13,40,52
1.29: ,204,33*4E$GPGLL,3039.07975,N,
1.32: 07650.83378,E,131407.00,A,A*6F
1.35: 
1.38: 
1.41: 
1.44: 
1.47: 
1.5: 
1.53: 
1.56: $GPRMC,131408.00,A,3039.07946,N,
1.59: 
1.62: 07650.83369,E,0.610,,200325,,,A*
1.65: 78$GPVTG,,T,,M,0.610,N,1.129,K
1.68: ,A*2F$GPGGA,131408.00,3039.079
1.71: 46,N,07650.83369,E,1,05,2.15,331
1.74: .4,M,-37.2,M,,*78$GPGSA,A,3,29
1.77: ,15,18,23,25,,,,,,,,3.51,2.15,2.
1.8: 78*0E$GPGSV,4,1,13,05,33,040,0
1.83: 8,10,08,238,23,13,37,071,,15,62,
1.86: 124,34*76$GPGSV,4,2,13,16,06,3
1.89: 16,,18,46,322,26,20,03,056,,23,4
1.92: 5,255,20*76$GPGSV,4,3,13,24,02
1.95: ,149,,25,12,201,21,26,12,291,08,
1.98: 29,81,170,39*7B$GPGSV,4,4,13,4
2.01: 0,52,204,33*4E$GPGLL,3039.0794
2.04: 6,N,07650.83369,E,131408.00,A,A*
2.07: 
2.1: 
2.13: 
2.16: 
2.19: 
2.22: 
2.25: 
2.28: 60$GPRMC,131409.00,A,3039.0792
2.31: 
2.34: 
2.37: 
2.4: 1,N,07650.83359,E,0.223,,200325,
2.43: ,,A*7F$GPVTG,,T,,M,0.223,N,0.4
2.46: 13,K,A*26$GPGGA,131409.00,3039
2.49: .07921,N,07650.83359,E,1,05,2.15
2.52: ,331.4,M,-37.2,M,,*7B$GPGSA,A,
2.55: 3,29,15,18,23,25,,,,,,,,3.51,2.1
2.58: 5,2.78*0E$GPGSV,4,1,13,05,33,0
2.61: 40,08,10,08,238,23,13,37,071,,15
2.64: ,62,124,34*76$GPGSV,4,2,13,16,
2.67: 06,316,,18,46,322,26,20,03,056,,
2.7: 23,45,255,19*7C$GPGSV,4,3,13,2
2.73: 4,02,149,,25,12,201,20,26,12,291
2.76: ,08,29,81,170,39*7A$GPGSV,4,4,
2.79: 13,40,52,204,32*4F$GPGLL,3039.
2.82: 07921,N,07650.83359,E,131409.00,
2.85: 
2.88: 
2.91: 
2.94: 
2.97: 
3: 
3.03: 
3.06: 
3.09: 
3.12: 
3.15: 
3.18: A,A*63$GPRMC,131410.00,A,3039.
3.21: 07934,N,07650.83360,E,0.333,,200
3.24: 325,,,A*79$GPVTG,,T,,M,0.333,N
3.27: ,0.616,K,A*21$GPGGA,131410.00,
3.3: 3039.07934,N,07650.83360,E,1,05,
3.33: 2.15,331.4,M,-37.2,M,,*7D$GPGS
3.36: A,A,3,29,15,18,23,25,,,,,,,,3.51
3.39: ,2.15,2.78*0E$GPGSV,4,1,13,05,
3.42: 33,040,08,10,08,238,23,13,37,071
3.45: ,,15,62,124,34*76$GPGSV,4,2,13
3.48: ,16,06,316,,18,46,322,26,20,03,0
3.51: 56,,23,45,255,20*76$GPGSV,4,3,
3.54: 13,24,02,149,,25,12,201,20,26,12
3.57: ,291,08,29,81,170,39*7A$GPGSV,
3.6: 4,4,13,40,52,204,32*4F$GPGLL,3
3.63: 039.07934,N,07650.83360,E,131410
3.66: 
3.69: 
3.72: 
3.75: 
3.78: 
3.81: 
3.84: 
3.87: 
3.9: .00,A,A*65$GPRMC,131411.00,A,3
3.93: 039.07948,N,07650.83368,E,1.453,
3.96: ,200325,,,A*7B$GPVTG,,T,,M,1.4
3.99: 53,N,2.691,K,A*2C$GPGGA,131411
4.02: .00,3039.07948,N,07650.83368,E,1
4.05: ,05,2.15,331.4,M,-37.2,M,,*7F$
4.08: GPGSA,A,3,29,15,18,23,25,,,,,,,,
4.11: 3.51,2.15,2.78*0E$GPGSV,4,1,13
4.14: ,05,33,040,09,10,08,238,24,13,37
4.17: ,071,,15,62,124,34*70$GPGSV,4,
4.2: 2,13,16,06,316,,18,46,322,26,20,
4.23: 03,056,,23,45,255,21*77$GPGSV,
4.26: 4,3,13,24,02,149,,25,12,201,21,2
4.29: 6,12,291,08,29,81,170,39*7B$GP
4.32: GSV,4,4,13,40,52,204,32*4F$GPG
4.35: LL,3039.07948,N,07650.83368,E,13
4.38: 
4.41: 
4.44: 
4.47: 
4.5: 
4.53: 
4.56: 
4.59: 
4.62: 
4.65: 
4.68: 1411.00,A,A*67$GPRMC,131412.00
4.71: ,A,3039.07909,N,07650.83360,E,1.
4.74: 705,,200325,,,A*75$GPVTG,,T,,M
4.77: ,1.705,N,3.158,K,A*2F$GPGGA,13
4.8: 1412.00,3039.07909,N,07650.83360
4.83: ,E,1,05,2.15,331.4,M,-37.2,M,,*7
4.86: 1$GPGSA,A,3,29,15,18,23,25,,,,
4.89: ,,,,3.51,2.15,2.77*01$GPGSV,4,
4.92: 1,13,05,33,040,09,10,08,238,23,1
4.95: 3,37,071,,15,62,124,34*77$GPGS
4.98: V,4,2,13,16,06,316,,18,46,322,26
5.01: ,20,03,056,,23,45,255,20*76$GP
5.04: GSV,4,3,13,24,02,149,,25,12,201,
5.07: 21,26,12,291,08,29,81,170,39*7B
5.1: $GPGSV,4,4,13,40,52,204,32*4F
5.13: $GPGLL,3039.07909,N,07650.83360,
5.16: 
5.19: 
5.22: 
5.25: 
5.28: 
5.31: 
5.34: 
5.37: 
5.4: E,131412.00,A,A*69$GPRMC,13141
5.43: 3.00,A,3039.07897,N,07650.83347,
5.46: E,0.901,,200325,,,A*7C$GPVTG,,
5.49: 
5.52: T,,M,0.901,N,1.669,K,A*23$GPGG
5.55: A,131413.00,3039.07897,N,07650.8
5.58: 3347,E,1,05,2.15,331.4,M,-37.2,M
5.61: ,,*73$GPGSA,A,3,29,15,18,23,25
5.64: ,,,,,,,,3.51,2.15,2.77*01$GPGS
5.67: V,4,1,13,05,33,040,08,10,08,238,
5.7: 23,13,37,071,,15,62,124,34*76$
5.73: GPGSV,4,2,13,16,06,316,,18,46,32
5.76: 2,26,20,03,056,,23,45,255,20*76
5.79: $GPGSV,4,3,13,24,02,149,,25,12,
5.82: 201,21,26,12,291,08,29,81,170,37
5.85: *75$GPGSV,4,4,13,40,52,204,32*
5.88: 4F$GPGLL,3039.07897,N,07650.83
5.91: 
5.94: 
5.97: 
6: 
6.03: 
6.06: 
6.09: 
6.12: 
6.15: 
6.18: 347,E,131413.00,A,A*6B$GPRMC,1
6.21: 31414.00,A,3039.07907,N,07650.83
6.24: 353,E,0.202,,200325,,,A*7E$GPV
6.27: TG,,T,,M,0.202,N,0.374,K,A*23$
6.3: GPGGA,131414.00,3039.07907,N,076
6.33: 50.83353,E,1,05,2.15,331.4,M,-37
6.36: .2,M,,*79$GPGSA,A,3,29,15,18,2
6.39: 3,25,,,,,,,,3.51,2.15,2.77*01$
6.42: GPGSV,4,1,13,05,33,040,08,10,08,
6.45: 238,24,13,37,071,,15,62,124,34*7
6.48: 1$GPGSV,4,2,13,16,06,316,,18,4
6.51: 6,322,26,20,03,056,,23,45,255,21
6.54: *77$GPGSV,4,3,13,24,02,149,,25
6.57: ,12,201,21,26,12,291,09,29,81,17
6.6: 0,38*7B$GPGSV,4,4,13,40,52,204
6.63: ,32*4F$GPGLL,3039.07907,N,0765
6.66: 
6.69: 
6.72: 
6.75: 
6.78: 
6.81: 
6.84: 
6.87: 
6.9: 0.83353,E,131414.00,A,A*61$GPR
6.93: MC,131415.00,A,3039.07914,N,0765
6.96: 
6.99: 
7.02: 0.83354,E,1.163,,200325,,,A*7F
7.05: $GPVTG,,T,,M,1.163,N,2.154,K,A*2
7.08: 4$GPGGA,131415.00,3039.07914,N
7.11: ,07650.83354,E,1,05,2.15,331.4,M
7.14: ,-37.2,M,,*7D$GPGSA,A,3,29,15,
7.17: 18,23,25,,,,,,,,3.51,2.15,2.77*0
7.2: 1$GPGSV,4,1,13,05,33,040,08,10
7.23: ,08,238,25,13,37,071,,15,62,124,
7.26: 34*70$GPGSV,4,2,13,16,06,316,,
7.29: 18,46,322,26,20,03,056,,23,45,25
7.32: 5,20*76$GPGSV,4,3,13,24,02,149
7.35: ,,25,12,201,21,26,12,291,08,29,8
7.38: 1,170,38*7A$GPGSV,4,4,13,40,52
7.41: ,204,32*4F$GPGLL,3039.07914,N,
7.44: 07650.83354,E,131415.00,A,A*65
7.47: 
7.5: 
7.53: 
7.56: 
7.59: 
7.62: 
7.65: 
7.68: $GPRMC,131416.00,A,3039.07919,N,
7.71: 
7.74: 
7.77: 
7.8: 07650.83331,E,1.161,,200325,,,A*
7.83: 70$GPVTG,,T,,M,1.161,N,2.149,K
7.86: ,A*2A$GPGGA,131416.00,3039.079
7.89: 19,N,07650.83331,E,1,05,2.15,331
7.92: .3,M,-37.2,M,,*77$GPGSA,A,3,29
7.95: ,15,18,23,25,,,,,,,,3.51,2.15,2.
7.98: 77*01$GPGSV,4,1,13,05,33,040,,
8.01: 10,08,238,25,13,37,071,,15,62,12
8.04: 4,34*78$GPGSV,4,2,13,16,06,316
8.07: ,,18,46,322,26,20,03,056,,23,45,
8.1: 255,19*7C$GPGSV,4,3,13,24,02,1
8.13: 49,,25,12,201,20,26,12,291,08,29
8.16: ,81,170,39*7A$GPGSV,4,4,13,40,
8.19: 52,204,32*4F$GPGLL,3039.07919,
8.22: N,07650.83331,E,131416.00,A,A*68
8.25: 
8.28: 
8.31: 
8.34: 
8.37: 
8.4: 
8.43: 
8.46: 
8.49: 
8.52: $GPRMC,131417.00,A,3039.07923,
8.55: N,07650.83341,E,0.359,,200325,,,
8.58: A*77$GPVTG,,T,,M,0.359,N,0.666
8.61: ,K,A*2A$GPGGA,131417.00,3039.0
8.64: 7923,N,07650.83341,E,1,05,2.15,3
8.67: 31.3,M,-37.2,M,,*78$GPGSA,A,3,
8.7: 29,15,18,23,25,,,,,,,,3.51,2.15,
8.73: 2.77*01$GPGSV,4,1,13,05,33,040
8.76: ,,10,08,238,25,13,37,071,,15,62,
8.79: 124,34*78$GPGSV,4,2,13,16,06,3
8.82: 16,,18,46,322,26,20,03,056,,23,4
8.85: 5,255,19*7C$GPGSV,4,3,13,24,02
8.88: ,149,,25,12,201,20,26,12,291,08,
8.91: 29,81,170,38*7B$GPGSV,4,4,13,4
8.94: 0,52,204,33*4E$GPGLL,3039.0792
8.97: 3,N,07650.83341,E,131417.00,A,A*
9: 
9.03: 
9.06: 
9.09: 
9.12: 
9.15: 
9.18: 
9.21: 
9.24: 
9.27: 
9.3: 67$GPRMC,131418.00,A,3039.0794
9.33: 1,N,07650.83361,E,0.752,,200325,
9.36: ,,A*71$GPVTG,,T,,M,0.752,N,1.3
9.39: 93,K,A*2B$GPGGA,131418.00,3039
9.42: .07941,N,07650.83361,E,1,05,2.15
9.45: ,331.3,M,-37.2,M,,*71$GPGSA,A,
9.48: 3,29,15,18,23,25,,,,,,,,3.51,2.1
9.51: 5,2.77*01$GPGSV,4,1,13,05,33,0
9.54: 40,,10,08,238,24,13,37,071,,15,6
9.57: 2,124,34*79$GPGSV,4,2,13,16,06
9.6: ,316,,18,46,322,26,20,03,056,,23
9.63: ,45,255,18*7D$GPGSV,4,3,13,24,
9.66: 02,149,,25,12,201,21,26,12,291,0
9.69: 8,29,81,170,38*7A$GPGSV,4,4,13
9.72: ,40,52,204,32*4F$GPGLL,3039.07
9.75: 941,N,07650.83361,E,131418.00,A,
9.78: 
9.81: 
9.84: 
9.87: 
9.9: 
9.93: 
9.96: 
9.99: 
10.02: A*6E$GPRMC,131419.00,A,3039.07
10.05: 962,N,07650.83375,E,0.094,,20032
10.08: 5,,,A*79$GPVTG,,T,,M,0.094,N,0
10.11: 
10.14: .174,K,A*2C$GPGGA,131419.00,30
10.17: 39.07962,N,07650.83375,E,1,05,2.
10.2: 15,331.3,M,-37.2,M,,*74$GPGSA,
10.23: A,3,29,15,18,23,25,,,,,,,,3.51,2
10.26: .15,2.77*01$GPGSV,4,1,13,05,33
10.29: ,040,,10,08,238,25,13,37,071,,15
10.32: ,62,124,34*78$GPGSV,4,2,13,16,
10.35: 06,316,,18,46,322,26,20,03,056,,
10.38: 23,45,255,18*7D$GPGSV,4,3,13,2
10.41: 4,02,149,,25,12,201,20,26,12,291
10.44: ,08,29,81,170,38*7B$GPGSV,4,4,
10.47: 13,40,52,204,32*4F$GPGLL,3039.
10.5: 07962,N,07650.83375,E,131419.00,
10.53: 
10.56: 
10.59: 
10.62: 
10.65: 
10.68: 
10.71: 
10.74: 
10.77: 
10.8: A,A*6B$GPRMC,131420.00,A,3039.
10.83: 07983,N,07650.83385,E,0.736,,200
10.86: 325,,,A*7C$GPVTG,,T,,M,0.736,N
10.89: 
10.92: ,1.364,K,A*21$GPGGA,131420.00,
10.95: 3039.07983,N,07650.83385,E,1,05,
10.98: 2.15,331.3,M,-37.2,M,,*7E$GPGS
11.01: A,A,3,29,15,18,23,25,,,,,,,,3.51
11.04: ,2.15,2.77*01$GPGSV,4,1,13,05,
11.07: 33,040,,10,08,238,25,13,37,071,,
11.1: 15,62,124,34*78$GPGSV,4,2,13,1
11.13: 6,06,316,,18,46,322,26,20,03,056
11.16: ,,23,45,255,17*72$GPGSV,4,3,13
11.19: ,24,02,149,,25,12,201,20,26,12,2
11.22: 91,08,29,81,170,39*7A$GPGSV,4,
11.25: 4,13,40,52,204,32*4F$GPGLL,303
11.28: 9.07983,N,07650.83385,E,131420.0
11.31: 
11.34: 
11.37: 
11.4: 
11.43: 
11.46: 
11.49: 
11.52: 
11.55: 
11.58: 0,A,A*61$GPRMC,131421.00,A,303
11.61: 9.07999,N,07650.83396,E,0.201,,2
11.64: 00325,,,A*75$GPVTG,,T,,M,0.201
11.67: ,N,0.372,K,A*26$GPGGA,131421.0
11.7: 0,3039.07999,N,07650.83396,E,1,0
11.73: 5,2.15,331.3,M,-37.2,M,,*76$GP
11.76: GSA,A,3,29,15,18,23,25,,,,,,,,3.
11.79: 51,2.15,2.77*01$GPGSV,4,1,13,0
11.82: 5,33,040,,10,08,238,25,13,37,071
11.85: ,,15,62,124,33*7F$GPGSV,4,2,13
11.88: ,16,06,316,,18,46,322,26,20,03,0
11.91: 56,,23,45,255,17*72$GPGSV,4,3,
11.94: 13,24,02,149,,25,12,201,20,26,12
11.97: ,291,08,29,81,170,38*7B$GPGSV,
12: 4,4,13,40,52,204,32*4F$GPGLL,3
12.03: 039.07999,N,07650.83396,E,131421
12.06: 
12.09: 
12.12: 
12.15: 
12.18: 
12.21: 
12.24: 
12.27: 
12.3: .00,A,A*69$GPRMC,131422.00,A,3
12.33: 039.08003,N,07650.83406,E,1.246,
12.36: 
12.39: 
12.42: ,200325,,,A*7F$GPVTG,,T,,M,1.2
12.45: 46,N,2.308,K,A*2B$GPGGA,131422
12.48: .00,3039.08003,N,07650.83406,E,1
12.51: ,05,2.15,331.3,M,-37.2,M,,*7E$
12.54: GPGSA,A,3,29,15,18,23,25,,,,,,,,
12.57: 3.51,2.15,2.77*01$GPGSV,4,1,13
12.6: ,05,33,040,,10,08,238,25,13,37,0
12.63: 71,,15,62,124,34*78$GPGSV,4,2,
12.66: 13,16,06,316,,18,46,322,26,20,03
12.69: ,056,,23,45,255,17*72$GPGSV,4,
12.72: 3,13,24,02,149,,25,12,201,20,26,
12.75: 12,291,09,29,81,170,38*7A$GPGS
12.78: V,4,4,13,40,52,204,32*4F$GPGLL
12.81: ,3039.08003,N,07650.83406,E,1314
12.84: 
12.87: 
12.9: 
12.93: 
12.96: 
12.99: 
13.02: 
13.05: 
13.08: 22.00,A,A*61$GPRMC,131423.00,A
13.11: 
13.14: ,3039.08010,N,07650.83410,E,0.67
13.17: 7,,200325,,,A*7C$GPVTG,,T,,M,0
13.2: .677,N,1.254,K,A*27$GPGGA,1314
13.23: 23.00,3039.08010,N,07650.83410,E
13.26: ,1,06,2.15,331.3,M,-37.2,M,,*79
13.29: $GPGSA,A,3,29,15,18,23,05,25,,,
13.32: ,,,,3.51,2.15,2.77*04$GPGSV,4,
13.35: 1,13,05,33,040,18,10,08,238,25,1
13.38: 3,37,071,,15,62,124,34*71$GPGS
13.41: V,4,2,13,16,06,316,,18,46,322,25
13.44: ,20,03,056,,23,45,255,17*71$GP
13.47: GSV,4,3,13,24,02,149,,25,12,201,
13.5: 20,26,12,291,10,29,81,170,39*73
13.53: $GPGSV,4,4,13,40,52,204,33*4E
13.56: $GPGLL,3039.08010,N,07650.83410,
13.59: 
13.62: 
13.65: 
13.68: 
13.71: 
13.74: 
13.77: 
13.8: E,131423.00,A,A*65$GPRMC,13142
13.83: 
13.86: 
13.89: 
13.92: 4.00,A,3039.08020,N,07650.83414,
13.95: E,0.756,,200325,,,A*7E$GPVTG,,
13.98: T,,M,0.756,N,1.401,K,A*23$GPGG
14.01: A,131424.00,3039.08020,N,07650.8
14.04: 3414,E,1,06,2.15,331.3,M,-37.2,M
14.07: ,,*79$GPGSA,A,3,29,15,18,23,05
14.1: ,25,,,,,,,3.51,2.15,2.77*04$GP
14.13: GSV,4,1,13,05,33,040,16,10,08,23
14.16: 8,26,13,37,071,,15,62,124,34*7C
14.19: $GPGSV,4,2,13,16,06,316,,18,46,
14.22: 322,25,20,03,056,,23,45,255,16*7
14.25: 0$GPGSV,4,3,13,24,02,149,,25,1
14.28: 2,201,19,26,12,291,09,29,81,170,
14.31: 38*70$GPGSV,4,4,13,40,52,204,3
14.34: 3*4E$GPGLL,3039.08020,N,07650.
14.37: 
14.4: 
14.43: 
14.46: 
14.49: 
14.52: 
14.55: 
14.58: 83414,E,131424.00,A,A*65$GPRMC
14.61: 
14.64: ,131425.00,A,3039.07984,N,07650.
14.67: 83394,E,1.344,,200325,,,A*7E$G
14.7: PVTG,,T,,M,1.344,N,2.489,K,A*26
14.73: 
14.76: $GPGGA,131425.00,3039.07984,N,0
14.79: 7650.83394,E,1,06,2.15,331.2,M,-
14.82: 37.2,M,,*7E$GPGSA,A,3,29,15,18
14.85: ,23,05,25,,,,,,,3.51,2.15,2.77*0
14.88: 4$GPGSV,4,1,13,05,33,040,11,10
14.91: ,08,238,26,13,37,071,,15,62,124,
14.94: 34*7B$GPGSV,4,2,13,16,06,316,,
14.97: 18,46,322,25,20,03,056,,23,45,25
15: 5,15*73$GPGSV,4,3,13,24,02,149
15.03: ,,25,12,201,20,26,12,291,11,29,8
15.06: 1,170,39*72$GPGSV,4,4,13,40,52
15.09: ,204,33*4E$GPGLL,3039.07984,N,
15.12: 07650.83394,E,131425.00,A,A*63
15.15: 
15.18: 
15.21: 
15.24: 
15.27: 
15.3: 
15.33: 
15.36: 
15.39: 
15.42: $GPRMC,131426.00,A,3039.07956,N,
15.45: 07650.83379,E,1.994,,200325,,,A*
15.48: 76$GPVTG,,T,,M,1.994,N,3.692,K
15.51: 
15.54: ,A*28$GPGGA,131426.00,3039.079
15.57: 56,N,07650.83379,E,1,05,2.15,331
15.6: .2,M,-37.2,M,,*72$GPGSA,A,3,29
15.63: ,15,18,23,25,,,,,,,,3.51,2.15,2.
15.66: 77*01$GPGSV,4,1,13,05,33,040,0
15.69: 9,10,08,238,26,13,37,071,,15,62,
15.72: 124,34*72$GPGSV,4,2,13,16,06,3
15.75: 16,,18,46,322,25,20,03,056,,23,4
15.78: 5,255,14*72$GPGSV,4,3,13,24,02
15.81: ,149,,25,12,201,19,26,12,291,13,
15.84: 29,81,170,39*7A$GPGSV,4,4,13,4
15.87: 0,52,204,33*4E$GPGLL,3039.0795
15.9: 6,N,07650.83379,E,131426.00,A,A*
15.93: 
15.96: 
15.99: 
16.02: 
16.05: 
16.08: 
16.11: 
16.14: 
16.17: 
16.2: 6C$GPRMC,131427.00,A,3039.0794
16.23: 2,N,07650.83373,E,0.906,,200325,
16.26: ,,A*72$GPVTG,,T,,M,0.906,N,1.6
16.29: 78,K,A*24$GPGGA,131427.00,3039
16.32: .07942,N,07650.83373,E,1,06,1.30
16.35: ,331.2,M,-37.2,M,,*7B$GPGSA,A,
16.38: 3,29,15,18,23,05,25,,,,,,,2.16,1
16.41: .30,1.72*04$GPGSV,4,1,13,05,33
16.44: ,040,12,10,08,238,26,13,37,071,,
16.47: 15,62,124,34*78$GPGSV,4,2,13,1
16.5: 6,06,316,,18,46,322,25,20,03,056
16.53: ,,23,45,255,14*72$GPGSV,4,3,13
16.56: ,24,02,149,,25,12,201,18,26,12,2
16.59: 91,14,29,81,170,39*7C$GPGSV,4,
16.62: 4,13,40,52,204,33*4E$GPGLL,303
16.65: 9.07942,N,07650.83373,E,131427.0
16.68: 
16.71: 
16.74: 
16.77: 
16.8: 
16.83: 
16.86: 
16.89: 
16.92: 0,A,A*62$GPRMC,131428.00,A,303
16.95: 9.07951,N,07650.83382,E,0.369,,2
16.98: 
17.01: 
17.04: 00325,,,A*72$GPVTG,,T,,M,0.369
17.07: ,N,0.683,K,A*22$GPGGA,131428.0
17.1: 0,3039.07951,N,07650.83382,E,1,0
17.13: 6,1.30,331.3,M,-37.2,M,,*79$GP
17.16: GSA,A,3,29,15,18,23,05,25,,,,,,,
17.19: 2.16,1.30,1.72*04$GPGSV,4,1,13
17.22: ,05,33,040,14,10,08,238,26,13,37
17.25: ,071,,15,62,124,34*7E$GPGSV,4,
17.28: 2,13,16,06,316,,18,46,322,25,20,
17.31: 03,056,,23,45,255,14*72$GPGSV,
17.34: 4,3,13,24,02,149,,25,12,201,19,2
17.37: 6,12,291,14,29,81,170,38*7C$GP
17.4: GSV,4,4,13,40,52,204,33*4E$GPG
17.43: LL,3039.07951,N,07650.83382,E,13
17.46: 
17.49: 
17.52: 
17.55: 
17.58: 
17.61: 
17.64: 
17.67: 
17.7: 1428.00,A,A*61$GPRMC,131429.00
17.73: ,A,3039.07934,N,07650.83390,E,0.
17.76: 171,,200325,,,A*78$GPVTG,,T,,M
17.79: ,0.171,N,0.318,K,A*2E$GPGGA,13
17.82: 1429.00,3039.07934,N,07650.83390
17.85: ,E,1,06,1.30,331.3,M,-37.2,M,,*7
17.88: 8$GPGSA,A,3,29,15,18,23,05,25,
17.91: ,,,,,,2.16,1.30,1.72*04$GPGSV,
17.94: 4,1,13,05,33,040,14,10,08,238,26
17.97: 
18: ,13,37,071,,15,62,124,34*7E$GP
18.03: GSV,4,2,13,16,06,316,,18,46,322,
18.06: 25,20,03,056,,23,45,255,14*72$
18.09: GPGSV,4,3,13,24,02,149,,25,12,20
18.12: 1,18,26,12,291,12,29,81,170,38*7
18.15: B$GPGSV,4,4,13,40,52,204,32*4F
18.18: $GPGLL,3039.07934,N,07650.8339
18.21: 
18.24: 
18.27: 
18.3: 
18.33: 
18.36: 
18.39: 
18.42: 0,E,131429.00,A,A*60$GPRMC,131
18.45: 430.00,A,3039.07933,N,07650.8339
18.48: 
18.51: 
18.54: 6,E,1.672,,200325,,,A*74$GPVTG
18.57: ,,T,,M,1.672,N,3.097,K,A*2C$GP
18.6: GGA,131430.00,3039.07933,N,07650
18.63: .83396,E,1,06,1.30,331.3,M,-37.2
18.66: ,M,,*71$GPGSA,A,3,29,15,18,23,
18.69: 05,25,,,,,,,2.16,1.30,1.72*04$
18.72: GPGSV,4,1,13,05,33,040,13,10,08,
18.75: 238,26,13,37,071,,15,62,124,34*7
18.78: 9$GPGSV,4,2,13,16,06,316,,18,4
18.81: 6,322,25,20,03,056,,23,45,255,14
18.84: *72$GPGSV,4,3,13,24,02,149,,25
18.87: ,12,201,18,26,12,291,13,29,81,17
18.9: 0,38*7A$GPGSV,4,4,13,40,52,204
18.93: ,33*4E$GPGLL,3039.07933,N,0765
18.96: 
18.99: 
19.02: 
19.05: 
19.08: 
19.11: 
19.14: 
19.17: 
19.2: 0.83396,E,131430.00,A,A*69$GPR
19.23: 
19.26: 
19.29: 
19.32: MC,131431.00,A,3039.07960,N,0765
19.35: 0.83405,E,2.324,,200325,,,A*7B
19.38: $GPVTG,,T,,M,2.324,N,4.304,K,A*2
19.41: 7$GPGGA,131431.00,3039.07960,N
19.44: ,07650.83405,E,1,06,1.30,331.3,M
19.47: ,-37.2,M,,*7B$GPGSA,A,3,29,15,
19.5: 18,23,05,25,,,,,,,2.16,1.30,1.72
19.53: *04$GPGSV,4,1,13,05,33,040,13,
19.56: 10,08,238,26,13,37,071,,15,62,12
19.59: 4,34*79$GPGSV,4,2,13,16,06,316
19.62: ,,18,46,322,25,20,03,056,,23,45,
19.65: 255,14*72$GPGSV,4,3,13,24,02,1
19.68: 49,,25,12,201,18,26,12,291,13,29
19.71: ,81,170,38*7A$GPGSV,4,4,13,40,
19.74: 52,204,32*4F$GPGLL,3039.07960,
19.77: N,07650.83405,E,131431.00,A,A*63
19.8: 
19.83: 
19.86: 
19.89: 
19.92: 
19.95: 
19.98: 
20.01: 
20.04: $GPRMC,131432.00,A,3039.07972,
20.07: N,07650.83409,E,0.932,,200325,,,
20.1: A*78$GPVTG,,T,,M,0.932,N,1.726
20.13: ,K,A*29$GPGGA,131432.00,3039.0
20.16: 7972,N,07650.83409,E,1,06,1.30,3
20.19: 31.3,M,-37.2,M,,*77$GPGSA,A,3,
20.22: 29,15,18,23,05,25,,,,,,,2.15,1.3
20.25: 0,1.72*07$GPGSV,4,1,13,05,33,0
20.28: 40,13,10,08,238,26,13,37,071,,15
20.31: ,62,124,34*79$GPGSV,4,2,13,16,
20.34: 06,316,,18,46,322,25,20,03,056,,
20.37: 23,45,255,14*72$GPGSV,4,3,13,2
20.4: 4,02,149,,25,12,201,19,26,12,291
20.43: ,14,29,81,170,38*7C$GPGSV,4,4,
20.46: 13,40,52,204,32*4F$GPGLL,3039.
20.49: 07972,N,07650.83409,E,131432.00,
20.52: 
20.55: 
20.58: 
20.61: 
20.64: 
20.67: 
20.7: 
20.73: 
20.76: 
20.79: 
20.82: A,A*6F$GPRMC,131433.00,A,3039.
20.85: 07970,N,07650.83411,E,0.153,,200
20.88: 325,,,A*7D$GPVTG,,T,,M,0.153,N
20.91: ,0.283,K,A*2D$GPGGA,131433.00,
20.94: 3039.07970,N,07650.83411,E,1,06,
20.97: 1.30,331.4,M,-37.2,M,,*7A$GPGS
21: A,A,3,29,15,18,23,05,25,,,,,,,2.
21.03: 15,1.30,1.72*07$GPGSV,4,1,13,0
21.06: 5,33,040,11,10,08,238,26,13,37,0
21.09: 71,,15,62,124,34*7B$GPGSV,4,2,
21.12: 13,16,06,316,,18,46,322,26,20,03
21.15: ,056,,23,45,255,14*71$GPGSV,4,
21.18: 3,13,24,02,149,,25,12,201,19,26,
21.21: 12,291,14,29,81,170,39*7D$GPGS
21.24: V,4,4,13,40,52,204,32*4F$GPGLL
21.27: ,3039.07970,N,07650.83411,E,1314
21.3: 
21.33: 
21.36: 
21.39: 
21.42: 
21.45: 
21.48: 
21.51: 
21.54: 33.00,A,A*65$GPRMC,131434.00,A
21.57: ,3039.07954,N,07650.83416,E,0.09
21.6: 9,,200325,,,A*7C$GPVTG,,T,,M,0
21.63: 
21.66: .099,N,0.184,K,A*2E$GPGGA,1314
21.69: 34.00,3039.07954,N,07650.83416,E
21.72: ,1,05,2.15,331.4,M,-37.2,M,,*7B
21.75: $GPGSA,A,3,29,15,18,23,25,,,,,,
21.78: ,,3.50,2.15,2.77*00$GPGSV,4,1,
21.81: 13,05,33,040,09,10,08,238,27,13,
21.84: 37,071,,15,62,124,34*73$GPGSV,
21.87: 4,2,13,16,06,316,,18,46,322,26,2
21.9: 0,03,056,,23,45,255,14*71$GPGS
21.93: V,4,3,13,24,02,149,,25,12,201,19
21.96: ,26,12,291,14,29,81,170,38*7C$
21.99: GPGSV,4,4,13,40,52,204,32*4F$G
22.02: PGLL,3039.07954,N,07650.83416,E,
22.05: 
22.08: 
22.11: 
22.14: 
22.17: 
22.2: 
22.23: 
22.26: 
22.29: 
22.32: 131434.00,A,A*63$GPRMC,131435.
22.35: 00,A,3039.07915,N,07650.83409,E,
22.38: 0.528,,200325,,,A*79$GPVTG,,T,
22.41: ,M,0.528,N,0.977,K,A*25$GPGGA,
22.44: 131435.00,3039.07915,N,07650.834
22.47: 09,E,1,05,2.15,331.4,M,-37.2,M,,
22.5: *71$GPGSA,A,3,29,15,18,23,25,,
22.53: ,,,,,,3.50,2.15,2.77*00$GPGSV,
22.56: 4,1,13,05,33,040,08,10,08,238,27
22.59: ,13,37,071,,15,62,124,34*72$GP
22.62: GSV,4,2,13,16,06,316,,18,46,322,
22.65: 25,20,03,056,,23,45,255,12*74$
22.68: GPGSV,4,3,13,24,02,149,,25,12,20
22.71: 1,18,26,12,291,15,29,81,170,38*7
22.74: C$GPGSV,4,4,13,40,52,204,32*4F
22.77: $GPGLL,3039.07915,N,07650.8340
22.8: 
22.83: 
22.86: 
22.89: 
22.92: 
22.95: 
22.98: 
23.01: 
23.04: 9,E,131435.00,A,A*69$GPRMC,131
23.07: 436.00,A,3039.07903,N,07650.8340
23.1: 9,E,0.401,,200325,,,A*77$GPVTG
23.13: 
23.16: ,,T,,M,0.401,N,0.742,K,A*27$GP
23.19: GGA,131436.00,3039.07903,N,07650
23.22: .83409,E,1,05,2.15,331.4,M,-37.2
23.25: 
23.28: ,M,,*75$GPGSA,A,3,29,15,18,23,
23.31: 25,,,,,,,,3.50,2.15,2.76*01$GP
23.34: GSV,4,1,13,05,33,040,08,10,08,23
23.37: 8,27,13,37,071,,15,62,124,34*72
23.4: $GPGSV,4,2,13,16,06,316,,18,46,
23.43: 322,25,20,03,056,,23,45,255,12*7
23.46: 4$GPGSV,4,3,13,24,02,149,,25,1
23.49: 2,201,17,26,12,291,15,29,81,170,
23.52: 38*73$GPGSV,4,4,13,40,52,204,3
23.55: 2*4F$GPGLL,3039.07903,N,07650.
23.58: 
23.61: 
23.64: 
23.67: 
23.7: 
23.73: 
23.76: 
23.79: 
23.82: 83409,E,131436.00,A,A*6D$GPRMC
23.85: ,131437.00,A,3039.07877,N,07650.
23.88: 
23.91: 
23.94: 83404,E,0.427,,200325,,,A*7D$G
23.97: PVTG,,T,,M,0.427,N,0.792,K,A*2E
24: $GPGGA,131437.00,3039.07877,N,0
24.03: 7650.83404,E,1,06,1.30,331.4,M,-
24.06: 37.2,M,,*7C$GPGSA,A,3,29,15,18
24.09: ,23,05,25,,,,,,,2.15,1.30,1.72*0
24.12: 7$GPGSV,4,1,13,05,33,040,10,10
24.15: ,08,238,26,13,37,071,,15,62,124,
24.18: 34*7A$GPGSV,4,2,13,16,06,316,,
24.21: 18,46,322,26,20,03,056,,23,45,25
24.24: 5,11*74$GPGSV,4,3,13,24,02,149
24.27: ,,25,12,201,16,26,12,291,15,29,8
24.3: 1,170,38*72$GPGSV,4,4,13,40,52
24.33: ,204,32*4F$GPGLL,3039.07877,N,
24.36: 07650.83404,E,131437.00,A,A*63
24.39: 
24.42: 
24.45: 
24.48: 
24.51: 
24.54: 
24.57: 
24.6: $GPRMC,131438.00,A,3039.07898,N,
24.63: 
24.66: 07650.83419,E,0.801,,200325,,,A*
24.69: 77$GPVTG,,T,,M,0.801,N,1.484,K
24.72: ,A*23$GPGGA,131438.00,3039.078
24.75: 
24.78: 98,N,07650.83419,E,1,06,1.30,331
24.81: .4,M,-37.2,M,,*7E$GPGSA,A,3,29
24.84: ,15,18,23,05,25,,,,,,,2.15,1.30,
24.87: 1.72*07$GPGSV,4,1,13,05,33,040
24.9: ,11,10,08,238,26,13,37,071,,15,6
24.93: 2,124,33*7C$GPGSV,4,2,13,16,06
24.96: ,316,,18,46,322,26,20,03,056,,23
24.99: ,45,255,11*74$GPGSV,4,3,13,24,
25.02: 02,149,,25,12,201,16,26,12,291,1
25.05: 4,29,81,170,38*73$GPGSV,4,4,13
25.08: ,40,52,204,32*4F$GPGLL,3039.07
25.11: 898,N,07650.83419,E,131438.00,A,
25.14: 
25.17: 
25.2: 
25.23: 
25.26: 
25.29: 
25.32: 
25.35: 
25.38: 
25.41: 
25.44: A*61$GPRMC,131439.00,A,3039.07
25.47: 892,N,07650.83429,E,0.704,,20032
25.5: 5,,,A*75$GPVTG,,T,,M,0.704,N,1
25.53: .304,K,A*26$GPGGA,131439.00,30
25.56: 39.07892,N,07650.83429,E,1,05,2.
25.59: 15,331.4,M,-37.2,M,,*71$GPGSA,
25.62: A,3,29,15,18,23,25,,,,,,,,3.50,2
25.65: .15,2.76*01$GPGSV,4,1,13,05,33
25.68: ,040,,10,08,238,26,13,37,071,,15
25.71: ,62,124,34*7B$GPGSV,4,2,13,16,
25.74: 06,316,,18,46,322,26,20,03,056,,
25.77: 23,45,255,12*77$GPGSV,4,3,13,2
25.8: 4,02,149,,25,12,201,17,26,12,291
25.83: ,14,29,81,170,38*72$GPGSV,4,4,
25.86: 13,40,52,204,32*4F$GPGLL,3039.
25.89: 07892,N,07650.83429,E,131439.00,
25.92: 
25.95: 
25.98: 
26.01: 
26.04: 
26.07: 
26.1: 
26.13: 
26.16: A,A*69$GPRMC,131440.00,A,3039.
26.19: 07899,N,07650.83446,E,0.879,,200
26.22: 325,,,A*7C$GPVTG,,T,,M,0.879,N
26.25: 
26.28: ,1.628,K,A*28$GPGGA,131440.00,
26.31: 3039.07899,N,07650.83446,E,1,05,
26.34: 2.15,331.4,M,-37.2,M,,*7D$GPGS
26.37: A,A,3,29,15,18,23,25,,,,,,,,3.50
26.4: ,2.15,2.76*01$GPGSV,4,1,13,05,
26.43: 33,040,,10,08,238,26,13,37,071,,
26.46: 15,62,124,33*7C$GPGSV,4,2,13,1
26.49: 6,06,316,,18,46,322,26,20,03,056
26.52: ,,23,45,255,13*76$GPGSV,4,3,13
26.55: ,24,02,149,,25,12,201,16,26,12,2
26.58: 91,14,29,81,170,38*73$GPGSV,4,
26.61: 4,13,40,52,204,32*4F$GPGLL,303
26.64: 9.07899,N,07650.83446,E,131440.0
26.67: 
26.7: 
26.73: 
26.76: 
26.79: 
26.82: 
26.85: 
26.88: 
26.91: 
26.94: 0,A,A*65$GPRMC,131441.00,A,303
26.97: 9.07889,N,07650.83462,E,0.385,,2
27: 00325,,,A*72$GPVTG,,T,,M,0.385
27.03: 
27.06: ,N,0.714,K,A*2F$GPGGA,131441.0
27.09: 0,3039.07889,N,07650.83462,E,1,0
27.12: 5,2.15,331.4,M,-37.2,M,,*7B$GP
27.15: GSA,A,3,29,15,18,23,25,,,,,,,,3.
27.18: 50,2.15,2.76*01$GPGSV,4,1,13,0
27.21: 5,33,040,,10,08,238,26,13,37,071
27.24: ,,15,62,124,34*7B$GPGSV,4,2,13
27.27: ,16,06,316,,18,46,322,26,20,03,0
27.3: 56,,23,45,255,13*76$GPGSV,4,3,
27.33: 13,24,02,149,,25,12,201,17,26,12
27.36: ,291,14,29,81,170,38*72$GPGSV,
27.39: 4,4,13,40,52,204,32*4F$GPGLL,3
27.42: 039.07889,N,07650.83462,E,131441
27.45: 
27.48: 
27.51: 
27.54: 
27.57: 
27.6: 
27.63: 
27.66: 
27.69: 
27.72: .00,A,A*63$GPRMC,131442.00,A,3
27.75: 039.07899,N,07650.83474,E,0.192,
27.78: ,200325,,,A*73$GPVTG,,T,,M,0.1
27.81: 92,N,0.355,K,A*2A$GPGGA,131442
27.84: .00,3039.07899,N,07650.83474,E,1
27.87: ,05,2.15,331.4,M,-37.2,M,,*7E$
27.9: GPGSA,A,3,29,15,18,23,25,,,,,,,,
27.93: 3.50,2.15,2.76*01$GPGSV,4,1,13
27.96: ,05,33,040,,10,08,238,26,13,37,0
27.99: 71,,15,62,124,34*7B$GPGSV,4,2,
28.02: 13,16,06,316,,18,46,322,25,20,03
28.05: ,056,,23,45,255,12*74$GPGSV,4,
28.08: 3,13,24,02,149,,25,12,201,16,26,
28.11: 12,291,15,29,81,170,38*72$GPGS
28.14: V,4,4,13,40,52,204,33*4E$GPGLL
28.17: ,3039.07899,N,07650.83474,E,1314
28.2: 
28.23: 
28.26: 
28.29: 
28.32: 
28.35: 
28.38: 
28.41: 
28.44: 42.00,A,A*66$GPRMC,131443.00,A
28.47: ,3039.07928,N,07650.83490,E,0.67
28.5: 
28.53: 
28.56: 9,,200325,,,A*71$GPVTG,,T,,M,0
28.59: .679,N,1.257,K,A*2A$GPGGA,1314
28.62: 43.00,3039.07928,N,07650.83490,E
28.65: ,1,05,2.15,331.4,M,-37.2,M,,*7E
28.68: $GPGSA,A,3,29,15,18,23,25,,,,,,
28.71: ,,3.50,2.15,2.76*01$GPGSV,4,1,
28.74: 13,05,33,040,,10,08,238,26,13,37
28.77: ,071,,15,62,124,34*7B$GPGSV,4,
28.8: 2,13,16,06,316,,18,46,322,25,20,
28.83: 03,056,,23,45,255,10*76$GPGSV,
28.86: 4,3,13,24,02,149,,25,12,201,16,2
28.89: 6,12,291,15,29,81,170,38*72$GP
28.92: GSV,4,4,13,40,52,204,33*4E$GPG
28.95: LL,3039.07928,N,07650.83490,E,13
28.98: 
29.01: 
29.04: 
29.07: 
29.1: 
29.13: 
29.16: 
29.19: 
29.22: 1443.00,A,A*66$GPRMC,131444.00
29.25: ,A,3039.07965,N,07650.83509,E,1.
29.28: 342,,200325,,,A*72$GPVTG,,T,,M
29.31: ,1.342,N,2.486,K,A*2F$GPGGA,13
29.34: 1444.00,3039.07965,N,07650.83509
29.37: ,E,1,06,2.15,331.4,M,-37.2,M,,*7
29.4: 2$GPGSA,A,3,29,15,18,23,05,25,
29.43: ,,,,,,3.50,2.15,2.76*04$GPGSV,
29.46: 4,1,13,05,33,040,14,10,08,238,26
29.49: ,13,37,071,,15,62,124,34*7E$GP
29.52: GSV,4,2,13,16,06,316,,18,46,322,
29.55: 25,20,03,056,,23,45,255,12*74$
29.58: GPGSV,4,3,13,24,02,149,,25,12,20
29.61: 1,15,26,12,291,15,29,81,170,38*7
29.64: 1$GPGSV,4,4,13,40,52,204,33*4E
29.67: $GPGLL,3039.07965,N,07650.8350
29.7: 
29.73: 
29.76: 
29.79: 
29.82: 
29.85: 
29.88: 
29.91: 
29.94: 9,E,131444.00,A,A*69$GPRMC,131
29.97: 445.00,A,3039.08007,N,07650.8352
30: 
30.03: 
30.06: 4,E,0.844,,200325,,,A*72$GPVTG
30.09: ,,T,,M,0.844,N,1.563,K,A*2A$GP
30.12: GGA,131445.00,3039.08007,N,07650
30.15: .83524,E,1,06,2.15,331.4,M,-37.2
30.18: ,M,,*7E$GPGSA,A,3,29,15,18,23,
30.21: 05,25,,,,,,,3.50,2.15,2.76*04$
30.24: GPGSV,4,1,13,05,33,040,13,10,08,
30.27: 238,26,13,36,070,,15,62,124,34*7
30.3: 9$GPGSV,4,2,13,16,06,316,,18,4
30.33: 6,322,25,20,03,056,,23,45,255,13
30.36: *75$GPGSV,4,3,13,24,02,149,,25
30.39: ,12,201,16,26,12,291,14,29,81,17
30.42: 0,38*73$GPGSV,4,4,13,40,52,204
30.45: ,33*4E$GPGLL,3039.08007,N,0765
30.48: 
30.51: 
30.54: 
30.57: 
30.6: 
30.63: 
30.66: 
30.69: 
30.72: 0.83524,E,131445.00,A,A*65$GPR
30.75: 
30.78: MC,131446.00,A,3039.08030,N,0765
30.81: 0.83532,E,0.235,,200325,,,A*7E
30.84: $GPVTG,,T,,M,0.235,N,0.435,K,A*2
30.87: 5$GPGGA,131446.00,3039.08030,N
30.9: ,07650.83532,E,1,06,2.15,331.5,M
30.93: ,-37.2,M,,*7F$GPGSA,A,3,29,15,
30.96: 18,23,05,25,,,,,,,3.50,2.15,2.76
30.99: *04$GPGSV,4,1,13,05,33,040,10,
31.02: 10,08,238,26,13,36,070,,15,62,12
31.05: 4,34*7A$GPGSV,4,2,13,16,06,316
31.08: ,,18,46,322,25,20,03,056,,23,45,
31.11: 255,15*73$GPGSV,4,3,13,24,02,1
31.14: 49,,25,12,201,17,26,12,291,14,29
31.17: ,81,170,38*72$GPGSV,4,4,13,40,
31.2: 52,204,33*4E$GPGLL,3039.08030,
31.23: N,07650.83532,E,131446.00,A,A*65
31.26: 
31.29: 
31.32: 
31.35: 
31.38: 
31.41: 
31.44: 
31.47: 
31.5: 
31.53: 
31.56: $GPRMC,131447.00,A,3039.08006,
31.59: N,07650.83525,E,0.744,,200325,,,
31.62: A*7F$GPVTG,,T,,M,0.744,N,1.378
31.65: ,K,A*29$GPGGA,131447.00,3039.0
31.68: 8006,N,07650.83525,E,1,06,2.15,3
31.71: 31.5,M,-37.2,M,,*7D$GPGSA,A,3,
31.74: 29,15,18,23,05,25,,,,,,,3.50,2.1
31.77: 5,2.76*04$GPGSV,4,1,13,05,33,0
31.8: 40,10,10,08,238,25,13,36,070,,15
31.83: ,62,123,34*7E$GPGSV,4,2,13,16,
31.86: 06,316,,18,46,322,25,20,03,056,,
31.89: 23,45,255,15*73$GPGSV,4,3,13,2
31.92: 4,02,149,,25,12,201,18,26,12,291
31.95: ,14,29,81,170,38*7D$GPGSV,4,4,
31.98: 13,40,52,204,33*4E$GPGLL,3039.
32.01: 08006,N,07650.83525,E,131447.00,
32.04: 
32.07: 
32.1: 
32.13: 
32.16: 
32.19: 
32.22: 
32.25: 
32.28: 
32.31: 
32.34: A,A*67$GPRMC,131448.00,A,3039.
32.37: 07955,N,07650.83502,E,1.059,,200
32.4: 325,,,A*7F$GPVTG,,T,,M,1.059,N
32.43: ,1.961,K,A*21$GPGGA,131448.00,
32.46: 3039.07955,N,07650.83502,E,1,05,
32.49: 2.15,331.5,M,-37.2,M,,*74$GPGS
32.52: A,A,3,29,15,18,23,25,,,,,,,,3.50
32.55: ,2.15,2.76*01$GPGSV,4,1,13,05,
32.58: 33,040,09,10,08,238,25,13,36,070
32.61: ,,15,62,123,34*76$GPGSV,4,2,13
32.64: ,16,06,315,,18,46,322,25,20,03,0
32.67: 56,,23,45,255,12*77$GPGSV,4,3,
32.7: 13,24,02,149,,25,12,201,17,26,12
32.73: ,291,13,29,81,170,38*75$GPGSV,
32.76: 4,4,13,40,52,204,33*4E$GPGLL,3
32.79: 039.07955,N,07650.83502,E,131448
32.82: 
32.85: 
32.88: 
32.91: 
32.94: 
32.97: 
33: 
33.03: 
33.06: .00,A,A*6D$GPRMC,131449.00,A,3
33.09: 039.07970,N,07650.83507,E,1.573,
33.12: ,200325,,,A*71$GPVTG,,T,,M,1.5
33.15: 
33.18: 73,N,2.913,K,A*2A$GPGGA,131449
33.21: .00,3039.07970,N,07650.83507,E,1
33.24: ,06,1.30,331.4,M,-37.2,M,,*71$
33.27: GPGSA,A,3,29,15,18,23,05,25,,,,,
33.3: ,,2.15,1.30,1.72*07$GPGSV,4,1,
33.33: 13,05,33,040,10,10,08,238,26,13,
33.36: 36,070,,15,62,123,34*7D$GPGSV,
33.39: 4,2,13,16,06,315,,18,46,322,25,2
33.42: 0,03,056,,23,45,255,12*77$GPGS
33.45: V,4,3,13,24,02,149,,25,12,201,16
33.48: ,26,12,291,14,29,81,170,38*73$
33.51: GPGSV,4,4,13,40,52,204,33*4E$G
33.54: PGLL,3039.07970,N,07650.83507,E,
33.57: 
33.6: 
33.63: 
33.66: 
33.69: 
33.72: 
33.75: 
33.78: 
33.81: 
33.84: 131449.00,A,A*6E$GPRMC,131450.
33.87: 00,A,3039.08009,N,07650.83513,E,
33.9: 0.537,,200325,,,A*75$GPVTG,,T,
33.93: ,M,0.537,N,0.994,K,A*26$GPGGA,
33.96: 131450.00,3039.08009,N,07650.835
33.99: 13,E,1,05,2.15,331.5,M,-37.2,M,,
34.02: *72$GPGSA,A,3,29,15,18,23,25,,
34.05: ,,,,,,3.50,2.15,2.76*01$GPGSV,
34.08: 4,1,13,05,33,040,08,10,08,238,26
34.11: ,13,36,070,,15,62,123,34*74$GP
34.14: GSV,4,2,13,16,06,315,,18,46,323,
34.17: 24,20,03,056,,23,45,255,13*76$
34.2: GPGSV,4,3,13,24,02,149,,25,12,20
34.23: 1,15,26,12,291,14,29,81,170,38*7
34.26: 0$GPGSV,4,4,13,40,52,204,33*4E
34.29: $GPGLL,3039.08009,N,07650.8351
34.32: 
34.35: 
34.38: 
34.41: 
34.44: 
34.47: 
34.5: 
34.53: 
34.56: 3,E,131450.00,A,A*6B$GPRMC,131
34.59: 451.00,A,3039.08002,N,07650.8351
34.62: 
34.65: 
34.68: 3,E,1.030,,200325,,,A*7C$GPVTG
34.71: ,,T,,M,1.030,N,1.907,K,A*2E$GP
34.74: GGA,131451.00,3039.08002,N,07650
34.77: .83513,E,1,05,2.15,331.5,M,-37.2
34.8: ,M,,*78$GPGSA,A,3,29,15,18,23,
34.83: 25,,,,,,,,3.50,2.15,2.76*01$GP
34.86: GSV,4,1,13,05,33,040,,10,08,238,
34.89: 26,13,36,070,,15,62,123,34*7C$
34.92: GPGSV,4,2,13,16,06,315,,18,46,32
34.95: 3,24,20,03,056,,23,45,255,15*70
34.98: $GPGSV,4,3,13,24,02,149,,25,12,
35.01: 201,14,26,12,291,14,29,81,170,38
35.04: *71$GPGSV,4,4,13,40,52,204,33*
35.07: 4E$GPGLL,3039.08002,N,07650.83
35.1: 
35.13: 
35.16: 
35.19: 
35.22: 
35.25: 
35.28: 
35.31: 
35.34: 513,E,131451.00,A,A*61$GPRMC,1
35.37: 31452.00,A,3039.08034,N,07650.83
35.4: 
35.43: 
35.46: 529,E,0.818,,200325,,,A*70$GPV
35.49: TG,,T,,M,0.818,N,1.516,K,A*21$
35.52: GPGGA,131452.00,3039.08034,N,076
35.55: 50.83529,E,1,05,2.15,331.5,M,-37
35.58: .2,M,,*77$GPGSA,A,3,29,15,18,2
35.61: 3,25,,,,,,,,3.50,2.15,2.76*01$
35.64: GPGSV,4,1,13,05,33,040,,10,08,23
35.67: 8,25,13,36,070,,15,62,123,34*7F
35.7: $GPGSV,4,2,13,16,06,315,,18,46,
35.73: 323,24,20,03,056,,23,45,255,16*7
35.76: 3$GPGSV,4,3,13,24,02,149,,25,1
35.79: 2,201,13,26,12,291,14,29,81,170,
35.82: 38*76$GPGSV,4,4,13,40,52,204,3
35.85: 3*4E$GPGLL,3039.08034,N,07650.
35.88: 
35.91: 
35.94: 
35.97: 
36: 
36.03: 
36.06: 
36.09: 
36.12: 83529,E,131452.00,A,A*6E$GPRMC
36.15: ,131453.00,A,3039.08069,N,07650.
36.18: 83545,E,1.623,,200325,,,A*74$G
36.21: PVTG,,T,,M,1.623,N,3.006,K,A*20
36.24: $GPGGA,131453.00,3039.08069,N,0
36.27: 
36.3: 7650.83545,E,1,05,2.15,331.5,M,-
36.33: 37.2,M,,*74$GPGSA,A,3,29,15,18
36.36: ,23,25,,,,,,,,3.50,2.15,2.76*01
36.39: $GPGSV,4,1,13,05,33,040,,10,08,
36.42: 238,26,13,36,070,,15,62,123,34*7
36.45: C$GPGSV,4,2,13,16,06,315,,18,4
36.48: 6,323,24,20,03,056,,23,45,255,16
36.51: *73$GPGSV,4,3,13,24,02,149,,25
36.54: ,12,201,12,26,12,291,15,29,81,17
36.57: 0,38*76$GPGSV,4,4,13,40,52,204
36.6: ,33*4E$GPGLL,3039.08069,N,0765
36.63: 
36.66: 
36.69: 
36.72: 
36.75: 
36.78: 
36.81: 
36.84: 0.83545,E,131453.00,A,A*6D$GPR
36.87: 
36.9: 
36.93: 
36.96: MC,131454.00,A,3039.08072,N,0765
36.99: 0.83546,E,0.384,,200325,,,A*73
37.02: $GPVTG,,T,,M,0.384,N,0.712,K,A*2
37.05: 8$GPGGA,131454.00,3039.08072,N
37.08: ,07650.83546,E,1,05,2.15,331.4,M
37.11: ,-37.2,M,,*7B$GPGSA,A,3,29,15,
37.14: 18,23,25,,,,,,,,3.49,2.15,2.76*0
37.17: 9$GPGSV,4,1,13,05,33,040,,10,0
37.2: 8,238,27,13,36,070,,15,62,123,35
37.23: *7C$GPGSV,4,2,13,16,06,315,,18
37.26: ,46,323,25,20,03,056,,23,45,255,
37.29: 14*70$GPGSV,4,3,13,24,02,149,,
37.32: 25,12,201,11,26,12,291,17,29,81,
37.35: 170,38*77$GPGSV,4,4,13,40,52,2
37.38: 04,32*4F$GPGLL,3039.08072,N,07
37.41: 
37.44: 
37.47: 
37.5: 
37.53: 
37.56: 
37.59: 
37.62: 650.83546,E,131454.00,A,A*63$G
37.65: 
37.68: PRMC,131455.00,A,3039.08059,N,07
37.71: 650.83548,E,1.781,,200325,,,A*75
37.74: $GPVTG,,T,,M,1.781,N,3.298,K,A
37.77: 
37.8: *2C$GPGGA,131455.00,3039.08059
37.83: ,N,07650.83548,E,1,04,2.70,331.4
37.86: ,M,-37.2,M,,*7F$GPGSA,A,3,29,1
37.89: 5,18,23,,,,,,,,,8.21,2.70,7.75*0
37.92: E$GPGSV,4,1,13,05,33,040,,10,0
37.95: 8,238,27,13,36,070,,15,62,123,34
37.98: *7D$GPGSV,4,2,13,16,06,315,,18
38.01: ,46,323,26,20,03,056,,23,46,255,
38.04: 16*72$GPGSV,4,3,13,24,02,149,,
38.07: 25,12,201,09,26,12,291,16,29,81,
38.1: 170,38*7F$GPGSV,4,4,13,40,52,2
38.13: 04,31*4C$GPGLL,3039.08059,N,07
38.16: 
38.19: 
38.22: 
38.25: 
38.28: 
38.31: 
38.34: 
38.37: 
38.4: 
38.43: 
38.46: 650.83548,E,131455.00,A,A*65$G
38.49: PRMC,131456.00,A,3039.08031,N,07
38.52: 650.83548,E,1.345,,200325,,,A*74
38.55: $GPVTG,,T,,M,1.345,N,2.491,K,A
38.58: *2E$GPGGA,131456.00,3039.08031
38.61: ,N,07650.83548,E,1,04,2.70,331.4
38.64: ,M,-37.2,M,,*72$GPGSA,A,3,29,1
38.67: 5,18,23,,,,,,,,,8.21,2.70,7.75*0
38.7: E$GPGSV,4,1,13,05,33,040,,10,0
38.73: 8,238,27,13,36,070,,15,62,123,34
38.76: *7D$GPGSV,4,2,13,16,06,315,,18
38.79: ,46,323,25,20,03,056,,23,46,255,
38.82: 16*71$GPGSV,4,3,13,24,02,148,,
38.85: 25,12,201,09,26,12,291,16,29,81,
38.88: 170,38*7E$GPGSV,4,4,13,40,52,2
38.91: 04,31*4C$GPGLL,3039.08031,N,07
38.94: 
38.97: 
39: 
39.03: 
39.06: 
39.09: 
39.12: 
39.15: 
39.18: 
39.21: 
39.24: 650.83548,E,131456.00,A,A*68$G
39.27: PRMC,131457.00,A,3039.07929,N,07
39.3: 650.83516,E,2.425,,200325,,,A*73
39.33: $GPVTG,,T,,M,2.425,N,4.491,K,A
39.36: *2A$GPGGA,131457.00,3039.07929
39.39: ,N,07650.83516,E,1,05,2.15,331.4
39.42: ,M,-37.2,M,,*75$GPGSA,A,3,29,1
39.45: 5,18,23,25,,,,,,,,3.49,2.15,2.76
39.48: *09$GPGSV,4,1,13,05,33,040,,10
39.51: ,08,238,27,13,36,070,,15,62,123,
39.54: 34*7D$GPGSV,4,2,13,16,06,315,,
39.57: 18,46,323,25,20,03,056,,23,46,25
39.6: 5,16*71$GPGSV,4,3,13,24,02,148
39.63: ,,25,12,200,11,26,12,291,16,29,8
39.66: 1,170,38*76$GPGSV,4,4,13,40,52
39.69: ,204,31*4C$GPGLL,3039.07929,N,
39.72: 07650.83516,E,131457.00,A,A*6D
39.75: 
39.78: 
39.81: 
39.84: 
39.87: 
39.9: 
39.93: 
39.96: $GPRMC,131458.00,A,3039.07937,N,
39.99: 07650.83512,E,1.616,,200325,,,A*
40.02: 
40.05: 
40.08: 76$GPVTG,,T,,M,1.616,N,2.993,K
40.11: ,A*22$GPGGA,131458.00,3039.079
40.14: 37,N,07650.83512,E,1,05,2.15,331
40.17: .4,M,-37.2,M,,*71$GPGSA,A,3,29
40.2: ,15,18,23,25,,,,,,,,3.49,2.15,2.
40.23: 76*09$GPGSV,4,1,13,05,33,040,,
40.26: 10,08,238,27,13,36,070,,15,62,12
40.29: 3,34*7D$GPGSV,4,2,13,16,06,315
40.32: ,,18,46,323,25,20,03,056,,23,46,
40.35: 255,17*70$GPGSV,4,3,13,24,02,1
40.38: 48,,25,12,200,12,26,12,290,17,29
40.41: ,81,170,38*75$GPGSV,4,4,13,40,
40.44: 52,204,30*4D$GPGLL,3039.07937,
40.47: N,07650.83512,E,131458.00,A,A*69
40.5: 
40.53: 
40.56: 
40.59: 
40.62: 
40.65: 
40.68: 
40.71: 
40.74: $GPRMC,131459.00,A,3039.07941,
40.77: 
40.8: N,07650.83504,E,2.133,,200325,,,
40.83: A*72$GPVTG,,T,,M,2.133,N,3.950
40.86: ,K,A*2F$GPGGA,131459.00,3039.0
40.89: 7941,N,07650.83504,E,1,05,2.15,3
40.92: 31.4,M,-37.2,M,,*76$GPGSA,A,3,
40.95: 29,15,18,23,25,,,,,,,,3.49,2.15,
40.98: 2.76*09$GPGSV,4,1,13,05,33,040
41.01: ,,10,08,238,27,13,36,070,,15,62,
41.04: 123,34*7D$GPGSV,4,2,13,16,06,3
41.07: 15,,18,46,323,25,20,03,056,,23,4
41.1: 6,255,16*71$GPGSV,4,3,13,24,02
41.13: ,148,,25,12,200,12,26,12,290,17,
41.16: 29,81,170,38*75$GPGSV,4,4,13,4
41.19: 0,52,204,30*4D$GPGLL,3039.0794
41.22: 1,N,07650.83504,E,131459.00,A,A*
41.25: 
41.28: 
41.31: 
41.34: 
41.37: 
41.4: 
41.43: 
41.46: 6E$GPRMC,131500.00,A,3039.0794
41.49: 
41.52: 
41.55: 
41.58: 0,N,07650.83503,E,1.309,,200325,
41.61: ,,A*71$GPVTG,,T,,M,1.309,N,2.4
41.64: 25,K,A*29$GPGGA,131500.00,3039
41.67: .07940,N,07650.83503,E,1,06,2.15
41.7: ,331.4,M,-37.2,M,,*7E$GPGSA,A,
41.73: 3,29,15,18,23,05,25,,,,,,,3.49,2
41.76: .15,2.75*0F$GPGSV,4,1,13,05,33
41.79: ,040,14,10,08,238,26,13,36,070,,
41.82: 15,62,123,34*79$GPGSV,4,2,13,1
41.85: 6,06,315,,18,46,323,25,20,03,056
41.88: ,,23,46,255,17*70$GPGSV,4,3,13
41.91: ,24,02,148,,25,12,200,14,26,12,2
41.94: 90,16,29,81,170,38*72$GPGSV,4,
41.97: 4,13,40,52,204,31*4C$GPGLL,303
42: 9.07940,N,07650.83503,E,131500.0
42.03: 
42.06: 
42.09: 
42.12: 
42.15: 
42.18: 
42.21: 
42.24: 0,A,A*65$GPRMC,131501.00,A,303
42.27: 
42.3: 9.07897,N,07650.83486,E,0.730,,2
42.33: 00325,,,A*78$GPVTG,,T,,M,0.730
42.36: ,N,1.352,K,A*22$GPGGA,131501.0
42.39: 
42.42: 0,3039.07897,N,07650.83486,E,1,0
42.45: 6,2.15,331.4,M,-37.2,M,,*78$GP
42.48: GSA,A,3,29,15,18,23,05,25,,,,,,,
42.51: 3.49,2.15,2.75*0F$GPGSV,4,1,13
42.54: ,05,33,040,11,10,08,238,26,13,36
42.57: ,070,,15,62,123,34*7C$GPGSV,4,
42.6: 2,13,16,06,315,,18,46,323,24,20,
42.63: 03,056,,23,46,255,17*71$GPGSV,
42.66: 4,3,13,24,02,148,,25,12,200,16,2
42.69: 6,12,290,15,29,80,170,38*72$GP
42.72: GSV,4,4,13,40,52,204,31*4C$GPG
42.75: LL,3039.07897,N,07650.83486,E,13
42.78: 
42.81: 
42.84: 
42.87: 
42.9: 
42.93: 
42.96: 
42.99: 
43.02: 
43.05: 
43.08: 1501.00,A,A*63$GPRMC,131502.00
43.11: ,A,3039.07905,N,07650.83480,E,0.
43.14: 467,,200325,,,A*76$GPVTG,,T,,M
43.17: ,0.467,N,0.865,K,A*2D$GPGGA,13
43.2: 1502.00,3039.07905,N,07650.83480
43.23: ,E,1,06,2.15,331.4,M,-37.2,M,,*7
43.26: 7$GPGSA,A,3,29,15,18,23,05,25,
43.29: ,,,,,,3.49,2.15,2.75*0F$GPGSV,
43.32: 4,1,13,05,33,040,12,10,08,238,26
43.35: ,13,36,070,,15,62,123,34*7F$GP
43.38: GSV,4,2,13,16,06,315,,18,46,323,
43.41: 24,20,03,056,,23,46,255,19*7F$
43.44: GPGSV,4,3,13,24,02,148,,25,12,20
43.47: 0,16,26,12,290,16,29,80,170,38*7
43.5: 1$GPGSV,4,4,13,40,52,204,31*4C
43.53: $GPGLL,3039.07905,N,07650.8348
43.56: 
43.59: 
43.62: 
43.65: 
43.68: 
43.71: 
43.74: 
43.77: 
43.8: 
43.83: 
43.86: 0,E,131502.00,A,A*6C$GPRMC,131
43.89: 503.00,A,3039.07932,N,07650.8348
43.92: 2,E,0.175,,200325,,,A*77$GPVTG
43.95: ,,T,,M,0.175,N,0.324,K,A*25$GP
43.98: GGA,131503.00,3039.07932,N,07650
44.01: .83482,E,1,06,2.15,331.4,M,-37.2
44.04: ,M,,*70$GPGSA,A,3,29,15,18,23,
44.07: 05,25,,,,,,,3.49,2.15,2.75*0F$
44.1: GPGSV,4,1,13,05,33,040,12,10,08,
44.13: 238,27,13,36,070,,15,62,123,34*7
44.16: E$GPGSV,4,2,13,16,06,315,,18,4
44.19: 6,323,24,20,03,056,,23,46,255,20
44.22: *75$GPGSV,4,3,13,24,02,148,,25
44.25: ,12,200,15,26,12,290,17,29,80,17
44.28: 0,38*73$GPGSV,4,4,13,40,52,204
44.31: ,31*4C$GPGLL,3039.07932,N,0765
44.34: 
44.37: 
44.4: 
44.43: 
44.46: 
44.49: 
44.52: 
44.55: 
44.58: 0.83482,E,131503.00,A,A*6B$GPR
44.61: MC,131504.00,A,3039.07915,N,0765
44.64: 0.83475,E,0.832,,200325,,,A*77
44.67: 
44.7: $GPVTG,,T,,M,0.832,N,1.541,K,A*2
44.73: B$GPGGA,131504.00,3039.07915,N
44.76: ,07650.83475,E,1,06,1.30,331.4,M
44.79: ,-37.2,M,,*7E$GPGSA,A,3,29,15,
44.82: 18,23,05,25,,,,,,,2.15,1.30,1.71
44.85: *04$GPGSV,4,1,13,05,33,040,13,
44.88: 10,08,238,26,13,36,070,,15,62,12
44.91: 3,34*7E$GPGSV,4,2,13,16,06,315
44.94: ,,18,46,323,24,20,03,056,,23,46,
44.97: 255,20*75$GPGSV,4,3,13,24,02,1
45: 48,,25,12,200,15,26,12,290,17,29
45.03: ,80,170,38*73$GPGSV,4,4,13,40,
45.06: 52,204,31*4C$GPGLL,3039.07915,
45.09: N,07650.83475,E,131504.00,A,A*61
45.12: 
45.15: 
45.18: 
45.21: 
45.24: 
45.27: 
45.3: 
45.33: 
45.36: $GPRMC,131505.00,A,3039.07887,
45.39: N,07650.83463,E,0.680,,200325,,,
45.42: A*7C$GPVTG,,T,,M,0.680,N,1.259
45.45: ,K,A*22$GPGGA,131505.00,3039.0
45.48: 7887,N,07650.83463,E,1,06,1.30,3
45.51: 31.3,M,-37.2,M,,*75$GPGSA,A,3,
45.54: 29,15,18,23,05,25,,,,,,,2.15,1.3
45.57: 0,1.71*04$GPGSV,4,1,13,05,33,0
45.6: 40,12,10,08,238,26,13,36,070,,15
45.63: ,62,123,34*7F$GPGSV,4,2,13,16,
45.66: 06,315,,18,46,323,24,20,03,056,,
45.69: 23,46,255,21*74$GPGSV,4,3,13,2
45.72: 4,02,148,,25,12,200,14,26,12,290
45.75: ,16,29,80,170,38*73$GPGSV,4,4,
45.78: 13,40,52,204,31*4C$GPGLL,3039.
45.81: 07887,N,07650.83463,E,131505.00,
45.84: 
45.87: 
45.9: 
45.93: 
45.96: 
45.99: 
46.02: 
46.05: 
46.08: A,A*6D$GPRMC,131506.00,A,3039.
46.11: 07878,N,07650.83456,E,0.381,,200
46.14: 
46.17: 
46.2: 325,,,A*7D$GPVTG,,T,,M,0.381,N
46.23: ,0.706,K,A*28$GPGGA,131506.00,
46.26: 3039.07878,N,07650.83456,E,1,06,
46.29: 
46.32: 1.30,331.3,M,-37.2,M,,*70$GPGS
46.35: A,A,3,29,15,18,23,05,25,,,,,,,2.
46.38: 15,1.30,1.71*04$GPGSV,4,1,13,0
46.41: 5,33,040,12,10,08,238,26,13,36,0
46.44: 70,,15,62,123,35*7E$GPGSV,4,2,
46.47: 13,16,06,315,,18,46,323,24,20,03
46.5: ,056,,23,46,255,21*74$GPGSV,4,
46.53: 3,13,24,02,148,,25,12,200,15,26,
46.56: 12,290,17,29,80,170,38*73$GPGS
46.59: V,4,4,13,40,52,204,31*4C$GPGLL
46.62: ,3039.07878,N,07650.83456,E,1315
46.65: 
46.68: 
46.71: 
46.74: 
46.77: 
46.8: 
46.83: 
46.86: 06.00,A,A*68$GPRMC,131507.00,A
46.89: 
46.92: 
46.95: 
46.98: ,3039.07849,N,07650.83437,E,0.49
47.01: 8,,200325,,,A*76$GPVTG,,T,,M,0
47.04: .498,N,0.922,K,A*2F$GPGGA,1315
47.07: 07.00,3039.07849,N,07650.83437,E
47.1: ,1,06,1.30,331.3,M,-37.2,M,,*74
47.13: $GPGSA,A,3,29,15,18,23,05,25,,,
47.16: ,,,,2.15,1.30,1.71*04$GPGSV,4,
47.19: 1,13,05,33,040,14,10,08,238,25,1
47.22: 3,36,070,,15,62,123,35*7B$GPGS
47.25: V,4,2,13,16,06,315,,18,46,323,24
47.28: ,20,03,056,,23,46,255,22*77$GP
47.31: GSV,4,3,13,24,02,148,,25,12,200,
47.34: 16,26,12,290,17,29,80,170,38*70
47.37: $GPGSV,4,4,13,40,52,204,31*4C
47.4: $GPGLL,3039.07849,N,07650.83437,
47.43: 
47.46: 
47.49: 
47.52: 
47.55: 
47.58: 
47.61: 
47.64: E,131507.00,A,A*6C$GPRMC,13150
47.67: 
47.7: 8.00,A,3039.07839,N,07650.83425,
47.73: E,0.420,,200325,,,A*7E$GPVTG,,
47.76: T,,M,0.420,N,0.778,K,A*2D$GPGG
47.79: A,131508.00,3039.07839,N,07650.8
47.82: 3425,E,1,06,1.30,331.3,M,-37.2,M
47.85: ,,*7F$GPGSA,A,3,29,15,18,23,05
47.88: ,25,,,,,,,2.15,1.30,1.71*04$GP
47.91: GSV,4,1,13,05,33,040,14,10,08,23
47.94: 8,25,13,36,070,,15,62,123,35*7B
47.97: $GPGSV,4,2,13,16,06,315,,18,46,
48: 323,23,20,03,056,,23,46,255,20*7
48.03: 2$GPGSV,4,3,13,24,02,148,,25,1
48.06: 2,200,17,26,12,290,16,29,80,170,
48.09: 38*70$GPGSV,4,4,13,40,52,204,3
48.12: 1*4C$GPGLL,3039.07839,N,07650.
48.15: 
48.18: 
48.21: 
48.24: 
48.27: 
48.3: 
48.33: 
48.36: 83425,E,131508.00,A,A*67$GPRMC
48.39: 
48.42: 
48.45: 
48.48: ,131509.00,A,3039.07843,N,07650.
48.51: 83414,E,0.176,,200325,,,A*76$G
48.54: PVTG,,T,,M,0.176,N,0.326,K,A*24
48.57: $GPGGA,131509.00,3039.07843,N,0
48.6: 7650.83414,E,1,06,1.30,331.3,M,-
48.63: 37.2,M,,*71$GPGSA,A,3,29,15,18
48.66: ,23,05,25,,,,,,,2.15,1.30,1.71*0
48.69: 4$GPGSV,4,1,13,05,33,040,14,10
48.72: ,08,238,25,13,36,070,,15,62,123,
48.75: 35*7B$GPGSV,4,2,13,16,06,315,,
48.78: 18,46,323,22,20,03,056,,23,46,25
48.81: 5,18*78$GPGSV,4,3,13,24,02,148
48.84: ,,25,12,200,18,26,12,290,17,29,8
48.87: 0,170,38*7E$GPGSV,4,4,13,40,52
48.9: ,204,33*4E$GPGLL,3039.07843,N,
48.93: 07650.83414,E,131509.00,A,A*69
48.96: 
48.99: 
49.02: 
49.05: 
49.08: 
49.11: 
49.14: 
49.17: 
49.2: $GPRMC,131510.00,A,3039.07823,N,
49.23: 07650.83394,E,0.187,,200325,,,A*
49.26: 79$GPVTG,,T,,M,0.187,N,0.347,K
49.29: 
49.32: ,A*2D$GPGGA,131510.00,3039.078
49.35: 23,N,07650.83394,E,1,05,2.15,331
49.38: .3,M,-37.2,M,,*77$GPGSA,A,3,29
49.41: ,15,18,23,25,,,,,,,,3.49,2.15,2.
49.44: 75*0A$GPGSV,4,1,13,05,33,040,,
49.47: 10,08,238,24,13,36,070,,15,62,12
49.5: 3,35*7F$GPGSV,4,2,13,16,06,315
49.53: ,,18,46,323,22,20,03,056,,23,46,
49.56: 255,19*79$GPGSV,4,3,13,24,02,1
49.59: 48,,25,12,200,18,26,12,290,17,29
49.62: ,80,170,38*7E$GPGSV,4,4,13,40,
49.65: 52,204,33*4E$GPGLL,3039.07823,
49.68: N,07650.83394,E,131510.00,A,A*68
49.71: 
49.74: 
49.77: 
49.8: 
49.83: 
49.86: 
49.89: 
49.92: 
49.95: 
49.98: $GPRMC,131511.00,A,3039.07805,
